City_ID,City,Country,Date,Lat,Lng,Max Temp,Humidity,Cloudiness,Wind Speed,Current Description,Rain inches (last 3 hrs),Snow inches (last 3 hrs)
0,Chokurdakh,RU,2019-11-11 05:04:18,70.62,147.9,3.85,92,100,4.72,overcast clouds,0,0
1,Airai,TL,2019-11-11 05:04:18,-8.93,125.41,85.35,39,5,7.18,clear sky,0,0
2,Luderitz,NA,2019-11-11 05:04:18,-26.65,15.16,57.2,93,0,4.7,clear sky,0,0
3,Busselton,AU,2019-11-11 05:04:18,-33.64,115.35,75.99,23,0,5.32,clear sky,0,0
4,Umm Kaddadah,SD,2019-11-11 05:04:19,13.6,26.69,73.02,17,16,15.75,few clouds,0,0
5,Carnarvon,ZA,2019-11-11 05:04:19,-30.97,22.13,69.58,37,65,14.83,broken clouds,0,0
6,Kaniama,CD,2019-11-11 05:04:19,-7.57,24.18,70.81,93,91,3.36,light rain,0.38,0
7,Axim,GH,2019-11-11 05:04:19,4.87,-2.24,75.07,93,100,2.15,light rain,0.19,0
8,Victoria,BN,2019-11-11 05:00:08,5.28,115.24,87.8,66,75,3.36,broken clouds,0,0
9,Tabuk,PH,2019-11-11 05:04:20,17.41,121.44,78.48,81,35,15.64,light rain,0.5,0
10,Rikitea,PF,2019-11-11 05:04:20,-23.12,-134.97,73.99,85,93,20.33,light rain,0.63,0
11,Manjeshwar,IN,2019-11-11 05:04:20,12.72,74.89,84.2,74,20,3.36,few clouds,0,0
12,Ahuimanu,US,2019-11-11 05:04:21,21.44,-157.84,82.4,74,1,2.64,clear sky,0,0
13,Vaini,IN,2019-11-11 05:04:21,15.34,74.49,78.8,61,0,6.93,clear sky,0,0
14,Palamedu,IN,2019-11-11 05:04:21,10.12,78.12,84.2,79,20,4.9,haze,0,0
15,Hobyo,SO,2019-11-11 05:04:21,5.35,48.53,83.17,58,25,14.5,scattered clouds,0,0
16,Aleksandrovsk-Sakhalinskiy,RU,2019-11-11 05:04:22,50.9,142.16,40.03,76,40,17.0,scattered clouds,0,0
17,Cape Town,ZA,2019-11-11 05:00:03,-33.93,18.42,66.0,88,90,10.29,overcast clouds,0,0
18,Hermanus,ZA,2019-11-11 05:04:22,-34.42,19.24,66.0,85,94,10.0,moderate rain,3.25,0
19,Silver City,US,2019-11-11 05:02:19,32.77,-108.28,57.0,66,1,8.05,clear sky,0,0
20,Karratha,AU,2019-11-11 05:04:22,-20.74,116.85,83.28,58,0,14.81,clear sky,0,0
21,Itoman,JP,2019-11-11 05:04:23,26.12,127.67,77.0,53,20,16.11,few clouds,0,0
22,Katsuura,JP,2019-11-11 05:04:23,33.93,134.5,69.8,67,40,20.8,shower rain,0,0
23,Pasni,PK,2019-11-11 05:04:23,25.26,63.48,77.13,16,71,16.44,broken clouds,0,0
24,Broken Hill,AU,2019-11-11 05:04:23,-31.97,141.45,86.0,9,0,16.11,clear sky,0,0
25,Saint-Philippe,CA,2019-11-11 05:04:24,45.36,-73.48,33.01,55,90,11.41,overcast clouds,0,0
26,Rawson,AR,2019-11-11 05:04:24,-43.3,-65.11,52.92,84,84,17.45,broken clouds,0,0
27,Hobart,AU,2019-11-11 05:04:24,-42.88,147.33,75.99,17,100,28.86,overcast clouds,0,0
28,Svetlogorsk,RU,2019-11-11 05:04:24,53.14,59.15,3.2,84,75,3.74,mist,0,0
29,Asyut,EG,2019-11-11 05:04:24,27.18,31.19,59.0,72,0,6.93,clear sky,0,0
30,Manggar,ID,2019-11-11 05:04:25,-2.88,108.27,84.65,71,0,10.76,clear sky,0,0
31,Butaritari,KI,2019-11-11 05:04:25,3.07,172.79,84.78,70,41,8.55,scattered clouds,0,0
32,Longyearbyen,NO,2019-11-11 05:04:25,78.22,15.63,19.4,79,75,11.41,broken clouds,0,0
33,Khatanga,RU,2019-11-11 05:04:25,71.98,102.47,-2.85,98,100,6.71,light snow,0,0.19
34,Lavrentiya,RU,2019-11-11 05:04:26,65.58,-170.99,32.85,89,100,18.5,light snow,0,0.44
35,Port Alfred,ZA,2019-11-11 05:04:26,-33.59,26.89,63.0,96,100,5.99,light rain,1.25,0
36,Dikson,RU,2019-11-11 05:04:26,73.51,80.55,9.37,95,66,7.81,broken clouds,0,0
37,Tutoia,BR,2019-11-11 05:04:26,-2.76,-42.27,71.4,95,37,2.86,scattered clouds,0,0
38,Bambous Virieux,MU,2019-11-11 05:04:26,-20.34,57.76,80.01,78,75,3.36,broken clouds,0,0
39,Hambantota,LK,2019-11-11 05:04:27,6.12,81.12,84.2,83,40,6.93,scattered clouds,0,0
40,Ribeira Grande,PT,2019-11-11 05:04:27,38.52,-28.7,62.02,83,72,2.71,broken clouds,0,0
41,Jamestown,AU,2019-11-11 05:04:27,-33.21,138.6,87.49,8,0,19.71,clear sky,0,0
42,Zhaoyuan,CN,2019-11-11 05:04:27,45.52,125.08,41.99,20,0,16.11,clear sky,0,0
43,Lokosovo,RU,2019-11-11 05:04:28,61.13,74.84,7.07,89,59,5.37,broken clouds,0,0
44,Babu,CN,2019-11-11 05:04:28,23.23,104.89,72.72,55,56,5.59,broken clouds,0,0
45,Ushuaia,AR,2019-11-11 05:04:28,-54.81,-68.31,50.0,57,40,6.93,scattered clouds,0,0
46,Chuy,UY,2019-11-11 05:04:28,-33.69,-53.46,59.54,85,5,9.42,clear sky,0,0
47,Bluff,AU,2019-11-11 05:04:28,-23.58,149.07,91.04,11,15,2.84,few clouds,0,0
48,Georgetown,GY,2019-11-11 05:01:27,6.8,-58.16,82.11,84,0,14.43,clear sky,0,0
49,Norman Wells,CA,2019-11-11 05:00:41,65.28,-126.83,-5.81,76,5,1.83,clear sky,0,0
50,Mar Del Plata,AR,2019-11-11 05:04:29,-46.43,-67.52,52.23,75,18,3.13,few clouds,0,0
51,Provideniya,RU,2019-11-11 05:04:30,64.42,-173.23,35.6,98,75,17.9,extreme rain,0,0
52,San Cristobal,HN,2019-11-11 05:04:30,14.68,-86.92,64.58,99,100,2.59,light rain,0.81,0
53,Qaanaaq,GL,2019-11-11 05:04:30,77.48,-69.36,2.39,44,0,4.72,clear sky,0,0
54,Richards Bay,ZA,2019-11-11 05:04:30,-28.77,32.06,71.51,92,100,20.0,light rain,1.94,0
55,Berea,US,2019-11-11 05:04:31,37.57,-84.3,51.8,53,1,5.82,clear sky,0,0
56,Ust-Nera,RU,2019-11-11 05:04:31,64.57,143.24,-9.3,99,73,3.33,broken clouds,0,0
57,Sitka,US,2019-11-11 05:04:31,37.17,-99.65,44.01,67,82,5.99,broken clouds,0,0
58,Kitimat,CA,2019-11-11 05:00:09,54.02,-128.69,32.0,68,40,19.46,scattered clouds,0,0
59,Port Hedland,AU,2019-11-11 05:01:28,-20.31,118.58,100.4,37,1,14.99,clear sky,0,0
60,Tiksi,RU,2019-11-11 05:04:32,71.64,128.87,-4.06,98,100,2.53,light snow,0,0.69
61,Grindavik,IS,2019-11-11 05:04:32,63.84,-22.43,42.8,87,75,24.16,shower rain,0,0
62,Esperance,AU,2019-11-11 05:04:32,-33.86,121.89,64.4,48,40,13.87,scattered clouds,0,0
63,La Ronge,CA,2019-11-11 05:04:32,55.1,-105.3,1.4,64,75,9.17,broken clouds,0,0
64,Mataura,NZ,2019-11-11 05:04:33,-46.19,168.86,51.01,62,87,11.01,overcast clouds,0,0
65,Vetlanda,SE,2019-11-11 05:04:33,57.43,15.09,35.01,100,98,5.82,light rain,0.25,0
66,Dingle,PH,2019-11-11 05:04:33,11.0,122.67,82.53,79,99,4.14,light rain,2.25,0
67,Zermatt,CH,2019-11-11 05:00:42,46.02,7.75,32.0,77,11,5.82,few clouds,0,0
68,Punta Arenas,CL,2019-11-11 05:04:34,-53.16,-70.91,44.6,87,75,6.93,broken clouds,0,0
69,Hoquiam,US,2019-11-11 05:04:34,46.98,-123.89,52.0,87,1,10.29,clear sky,0,0
70,Huarmey,PE,2019-11-11 05:04:34,-10.07,-78.15,62.24,84,51,2.15,broken clouds,0,0
71,Pangnirtung,CA,2019-11-11 05:04:35,66.15,-65.72,15.08,62,96,9.6,overcast clouds,0,0
72,Magalia,US,2019-11-11 05:04:35,39.81,-121.58,69.8,39,1,7.36,clear sky,0,0
73,Lagoa,PT,2019-11-11 05:04:36,37.14,-8.45,62.01,87,75,8.05,broken clouds,0,0
74,Big Rapids,US,2019-11-11 05:04:36,43.7,-85.48,32.0,80,90,5.82,overcast clouds,0,0
75,Narsaq,GL,2019-11-11 05:04:36,60.91,-46.05,33.8,80,100,24.16,light snow,0,0
76,Biak,ID,2019-11-11 05:04:36,-0.91,122.88,83.28,68,2,8.1,clear sky,0,0
77,Ambilobe,MG,2019-11-11 05:04:37,-13.19,49.05,89.17,36,66,5.14,broken clouds,0,0
78,Fort Nelson,CA,2019-11-11 05:00:39,58.81,-122.69,-5.81,76,5,2.37,clear sky,0,0
79,Gigmoto,PH,2019-11-11 05:04:37,13.78,124.39,82.15,79,100,18.72,moderate rain,5.06,0
80,Atuona,PF,2019-11-11 05:04:38,-9.8,-139.03,80.64,67,59,9.42,broken clouds,0,0
81,Paraiso,BR,2019-11-11 05:04:38,-0.03,-51.17,82.4,94,20,5.82,few clouds,0,0
82,Hit,IQ,2019-11-11 05:04:38,33.64,42.83,69.67,21,40,5.82,scattered clouds,0,0
83,Tasiilaq,GL,2019-11-11 05:04:39,65.61,-37.64,37.4,85,100,47.2,light intensity shower rain,0,0
84,Blackwater,GB,2019-11-11 05:04:39,51.33,-0.78,48.99,93,100,10.29,light rain,0,0
85,Thunder Bay,CA,2019-11-11 05:04:12,48.41,-89.26,10.0,71,75,9.17,broken clouds,0,0
86,Severo-Kurilsk,RU,2019-11-11 05:04:39,50.68,156.12,28.78,78,75,20.18,light snow,0,0.13
87,Walvis Bay,NA,2019-11-11 05:04:40,-22.95,14.51,57.0,93,75,5.82,fog,0,0
88,Brae,GB,2019-11-11 05:04:40,60.4,-1.35,41.0,75,100,20.8,moderate rain,0,0
89,Acajutla,SV,2019-11-11 05:01:52,13.59,-89.83,83.1,68,100,5.17,overcast clouds,0,0
90,Kangaba,ML,2019-11-11 05:04:40,11.94,-8.41,75.49,66,52,3.33,broken clouds,0,0
91,Ponta Delgada,PT,2019-11-11 05:04:41,37.73,-25.67,62.01,87,20,6.93,few clouds,0,0
92,Mokrous,RU,2019-11-11 05:04:41,51.24,47.51,37.18,87,12,9.53,few clouds,0,0
93,Lagunas,PE,2019-11-11 05:04:41,-5.23,-75.68,72.88,99,95,1.66,moderate rain,6.25,0
94,Tuktoyaktuk,CA,2019-11-11 05:04:41,69.44,-133.03,14.0,72,5,17.22,clear sky,0,0
95,Hilo,US,2019-11-11 05:04:41,19.71,-155.08,80.6,69,20,2.53,few clouds,0,0
96,Puerto Ayora,EC,2019-11-11 05:04:42,-0.74,-90.35,70.0,86,5,1.01,clear sky,0,0
97,Kodiak,US,2019-11-11 05:04:42,39.95,-94.76,33.8,74,1,13.87,clear sky,0,0
98,Baikunthpur,IN,2019-11-11 05:04:42,23.26,82.56,78.06,34,0,6.96,clear sky,0,0
99,Klaksvik,FO,2019-11-11 05:04:42,62.23,-6.59,39.2,71,100,25.28,light rain,0.31,0
100,Rodrigues Alves,BR,2019-11-11 05:04:43,-7.74,-72.65,73.4,100,40,3.36,scattered clouds,0,0
101,Vestmannaeyjar,IS,2019-11-11 05:04:43,63.44,-20.27,44.46,78,100,16.11,light rain,1.13,0
102,Lebu,ET,2019-11-11 05:04:43,8.96,38.73,57.2,62,74,8.05,broken clouds,0,0
103,Kapaa,US,2019-11-11 05:04:43,22.08,-159.32,78.8,94,75,4.7,broken clouds,0,0
104,Sao Filipe,CV,2019-11-11 05:04:44,14.9,-24.5,73.83,83,67,16.22,broken clouds,0,0
105,Kuala Terengganu,MY,2019-11-11 05:04:44,5.33,103.14,86.0,70,75,6.93,broken clouds,0,0
106,Yellowknife,CA,2019-11-11 05:00:08,62.45,-114.38,12.0,78,75,6.93,light snow,0,0
107,Camabatela,AO,2019-11-11 05:04:45,-8.19,15.37,66.07,96,100,3.83,moderate rain,4.13,0
108,Castro,CL,2019-11-11 05:04:45,-42.48,-73.76,51.8,100,49,5.82,scattered clouds,0,0
109,Pisco,PE,2019-11-11 05:04:47,-13.71,-76.2,63.0,88,99,3.36,smoke,0,0
110,Sehwan,PK,2019-11-11 05:04:47,26.43,67.86,60.8,72,20,5.03,haze,0,0
111,Taunsa,PK,2019-11-11 05:04:47,30.7,70.65,77.67,16,95,1.95,overcast clouds,0,0
112,Lompoc,US,2019-11-11 05:00:32,34.64,-120.46,55.99,93,90,4.7,mist,0,0
113,Hithadhoo,MV,2019-11-11 05:04:48,-0.6,73.08,83.41,68,100,7.34,overcast clouds,0,0
114,Marzuq,YE,2019-11-11 05:04:48,14.4,46.47,74.03,40,0,4.09,clear sky,0,0
115,Albany,US,2019-11-11 05:00:18,42.65,-73.75,42.01,93,90,4.7,overcast clouds,0,0
116,Tessalit,ML,2019-11-11 05:04:48,20.2,1.01,63.16,19,73,11.77,broken clouds,0,0
117,Ontario,US,2019-11-11 05:03:52,34.07,-117.65,66.2,67,1,2.17,clear sky,0,0
118,Cuamba,MZ,2019-11-11 05:04:08,-14.8,36.54,84.67,49,68,6.26,broken clouds,0,0
119,Upernavik,GL,2019-11-11 05:04:49,72.79,-56.15,24.93,62,88,3.47,overcast clouds,0,0
120,Inuvik,CA,2019-11-11 05:04:49,68.36,-133.71,10.4,51,5,4.7,clear sky,0,0
121,Ouadda,CF,2019-11-11 05:04:49,8.07,22.4,72.14,43,57,4.65,broken clouds,0,0
122,Talnakh,RU,2019-11-11 05:04:50,69.49,88.39,-5.81,83,75,6.71,shower snow,0,0
123,Avera,US,2019-11-11 05:04:50,33.19,-82.53,48.99,100,1,4.38,clear sky,0,0
124,Birjand,IR,2019-11-11 05:04:50,32.86,59.22,46.4,24,0,11.41,clear sky,0,0
125,Itaituba,BR,2019-11-11 05:04:50,-4.26,-55.99,72.82,97,93,2.8,light rain,0.56,0
126,Mahebourg,MU,2019-11-11 05:04:51,-20.41,57.7,80.01,78,75,3.36,broken clouds,0,0
127,Diu,IN,2019-11-11 05:04:51,20.71,70.98,80.67,63,0,1.03,clear sky,0,0
128,Llanes,ES,2019-11-11 05:04:51,43.42,-4.75,53.01,86,100,7.54,light rain,0.25,0
129,Baykit,RU,2019-11-11 05:04:51,61.68,96.39,-14.41,90,87,2.91,overcast clouds,0,0
130,Abu Samrah,SY,2019-11-11 05:04:51,35.3,37.18,64.99,23,77,7.05,broken clouds,0,0
131,Fallon,US,2019-11-11 05:04:52,46.84,-105.12,10.99,84,90,10.29,light snow,0,0
132,Iqaluit,CA,2019-11-11 05:04:52,63.75,-68.52,10.4,85,90,9.17,light snow,0,0
133,Saint-Louis,SN,2019-11-11 05:04:52,16.03,-16.5,71.6,78,97,4.7,overcast clouds,0,0
134,Henties Bay,NA,2019-11-11 05:04:53,-22.12,14.28,57.0,94,91,3.0,overcast clouds,0,0
135,Berlevag,NO,2019-11-11 05:04:53,70.86,29.09,30.2,80,75,16.11,broken clouds,0,0
136,Yulara,AU,2019-11-11 05:04:53,-25.24,130.99,100.4,4,0,8.05,clear sky,0,0
137,Saint George,GR,2019-11-11 05:04:54,39.45,22.34,50.0,76,20,6.93,few clouds,0,0
138,Harlingen,NL,2019-11-11 05:04:54,53.18,5.41,42.8,86,90,11.41,mist,0,0
139,Dunmore Town,BS,2019-11-11 05:04:54,25.5,-76.65,75.99,69,0,17.36,clear sky,0,0
140,Kpandu,GH,2019-11-11 05:04:55,7.0,0.29,71.98,91,77,1.7,broken clouds,0,0
141,Baruun-Urt,MN,2019-11-11 05:04:55,46.68,113.28,28.99,32,82,8.72,broken clouds,0,0
142,Saskylakh,RU,2019-11-11 05:04:55,71.97,114.09,-3.72,98,100,4.34,light snow,0,0.44
143,Kagadi,UG,2019-11-11 05:04:55,0.95,30.8,71.06,86,16,1.83,light rain,1.12,0
144,Aykhal,RU,2019-11-11 05:04:56,65.95,111.51,-20.21,75,100,4.47,overcast clouds,0,0
145,Geraldton,CA,2019-11-11 05:04:56,49.72,-86.95,-0.41,77,75,6.93,broken clouds,0,0
146,Kavieng,PG,2019-11-11 05:04:56,-2.57,150.8,84.54,64,0,1.34,clear sky,0,0
147,Landerneau,FR,2019-11-11 05:04:56,48.45,-4.26,50.0,76,89,19.46,light rain,0.5,0
148,Shimoda,JP,2019-11-11 05:04:57,34.7,138.93,69.8,64,40,12.75,scattered clouds,0,0
149,Cidreira,BR,2019-11-11 05:04:57,-30.17,-50.22,69.87,77,86,17.6,light rain,0.19,0
150,Arman,RU,2019-11-11 05:04:57,59.7,150.17,23.23,61,60,9.04,broken clouds,0,0
151,New Norfolk,AU,2019-11-11 05:04:57,-42.78,147.06,75.99,17,85,28.86,overcast clouds,0,0
152,Pitimbu,BR,2019-11-11 05:04:58,-7.47,-34.81,73.15,84,6,5.57,clear sky,0,0
153,Bandar-E Lengeh,IR,2019-11-11 05:04:58,26.56,54.88,68.0,60,0,6.93,clear sky,0,0
154,Podyuga,RU,2019-11-11 05:04:58,61.09,40.86,38.37,99,100,5.59,light rain,2.56,0
155,Portoferraio,IT,2019-11-11 05:04:58,42.81,10.31,55.99,87,75,10.29,light rain,0,0
156,Lazaro Cardenas,MX,2019-11-11 05:04:59,28.39,-105.62,66.2,68,40,8.05,scattered clouds,0,0
157,Ponta Do Sol,BR,2019-11-11 05:04:59,-20.63,-46.0,68.2,86,82,3.13,broken clouds,0,0
158,Sokoto,NG,2019-11-11 05:04:59,13.06,5.24,76.77,34,100,1.7,overcast clouds,0,0
159,Corrente,BR,2019-11-11 05:05:00,-17.45,-44.68,71.76,47,69,5.75,broken clouds,0,0
160,Barrow,AR,2019-11-11 05:05:00,-38.31,-60.23,56.12,91,83,11.56,broken clouds,0,0
161,Hervey Bay,AU,2019-11-11 05:05:00,-25.3,152.85,86.0,33,0,16.11,clear sky,0,0
162,Caravelas,BR,2019-11-11 05:05:01,-17.73,-39.27,69.28,96,4,7.2,clear sky,0,0
163,Kouango,CF,2019-11-11 05:05:01,4.99,19.98,75.07,73,100,1.21,overcast clouds,0,0
164,Sirsaganj,IN,2019-11-11 05:05:01,27.06,78.69,82.65,30,2,3.65,clear sky,0,0
165,Gornopravdinsk,RU,2019-11-11 05:05:01,60.06,69.92,14.63,84,97,8.77,overcast clouds,0,0
166,East London,ZA,2019-11-11 05:04:01,-33.02,27.91,64.4,93,90,13.87,light rain,0,0
167,Nampa,US,2019-11-11 05:05:02,43.57,-116.56,50.0,75,100,4.7,overcast clouds,0,0
168,San Juan,AR,2019-11-11 05:05:02,-31.54,-68.53,75.65,44,2,25.9,clear sky,0,0
169,Matamoros,US,2019-11-11 05:05:03,25.87,-97.51,73.99,73,90,5.82,overcast clouds,0,0
170,Komsomolskiy,RU,2019-11-11 05:05:03,67.55,63.78,6.21,95,100,8.97,light snow,0,0.62
171,Port Elizabeth,US,2019-11-11 05:05:03,39.31,-74.98,51.01,84,1,4.7,clear sky,0,0
172,Baiyin,CN,2019-11-11 05:05:03,36.55,104.13,46.4,45,20,2.24,few clouds,0,0
173,Yar-Sale,RU,2019-11-11 05:05:04,66.83,70.83,-4.67,89,50,11.01,scattered clouds,0,0
174,Tarrafal,CV,2019-11-11 05:05:04,15.28,-23.77,75.2,78,20,16.11,few clouds,0,0
175,Sijunjung,ID,2019-11-11 05:05:05,-0.69,100.95,87.82,54,100,3.27,overcast clouds,0,0
176,Clyde River,CA,2019-11-11 05:05:05,70.47,-68.59,12.2,100,100,29.97,light snow,0,0
177,San Agustin,VE,2019-11-11 05:05:05,10.2,-63.54,69.48,95,94,2.93,overcast clouds,0,0
178,Quang Ngai,VN,2019-11-11 05:05:05,15.12,108.8,79.72,84,68,20.71,moderate rain,5.69,0
179,Avarua,CK,2019-11-11 05:05:06,-21.21,-159.78,71.6,88,27,8.05,light rain,0,0
180,Adrar,DZ,2019-11-11 05:05:06,27.87,-0.29,51.8,34,2,4.7,clear sky,0,0
181,Berdigestyakh,RU,2019-11-11 05:05:06,62.1,126.7,-4.13,78,100,9.26,overcast clouds,0,0
182,Ayia Galini,GR,2019-11-11 05:05:06,35.1,24.68,66.99,82,75,2.24,broken clouds,0,0
183,Port Lincoln,AU,2019-11-11 05:05:07,-34.72,135.86,91.58,10,36,29.68,scattered clouds,0,0
184,Altagracia De Orituco,VE,2019-11-11 05:05:07,9.86,-66.38,69.33,99,98,2.95,overcast clouds,0,0
185,Aksu,KZ,2019-11-11 05:05:07,52.04,76.93,14.0,92,40,2.24,scattered clouds,0,0
186,Duyure,HN,2019-11-11 05:05:08,13.63,-86.82,64.4,93,75,4.7,shower rain,0,0
187,Nome,US,2019-11-11 05:05:08,30.04,-94.42,63.0,93,1,3.36,clear sky,0,0
188,Torbay,CA,2019-11-11 05:05:08,47.66,-52.73,34.0,86,20,8.05,few clouds,0,0
189,Martapura,ID,2019-11-11 05:05:08,-3.41,114.85,92.57,44,41,8.16,scattered clouds,0,0
190,Michalovce,SK,2019-11-11 05:05:08,48.75,21.92,42.8,87,90,4.7,overcast clouds,0,0
191,Masterton,NZ,2019-11-11 05:05:09,-40.95,175.66,60.01,64,87,5.01,light rain,0.13,0
192,Nichinan,JP,2019-11-11 05:05:09,31.65,131.31,71.6,56,40,17.22,scattered clouds,0,0
193,Brigg,GB,2019-11-11 05:05:09,53.55,-0.49,43.0,100,100,18.34,heavy intensity rain,0,0
194,Singkang,MY,2019-11-11 05:05:09,2.1,102.8,77.0,88,75,2.24,thunderstorm with light rain,0,0
195,Togur,RU,2019-11-11 05:05:10,58.36,82.83,6.93,75,0,4.81,clear sky,0,0
196,Deep River,CA,2019-11-11 05:00:15,46.1,-77.49,21.2,57,90,10.29,overcast clouds,0,0
197,Alasehir,TR,2019-11-11 05:05:10,38.35,28.52,60.01,85,98,5.99,light rain,0.19,0
198,Kalmunai,LK,2019-11-11 05:05:10,7.42,81.82,81.39,70,0,3.91,clear sky,0,0
199,Okhotsk,RU,2019-11-11 05:05:11,59.36,143.24,10.47,78,25,9.6,scattered clouds,0,0
200,Orbetello,IT,2019-11-11 05:05:11,42.44,11.21,53.6,87,75,10.29,light rain,0,0
201,Vostok,RU,2019-11-11 05:05:11,46.45,135.83,34.83,98,100,4.83,snow,0,2.88
202,Riyadh,SA,2019-11-11 05:05:11,24.63,46.72,69.8,60,23,2.24,few clouds,0,0
203,Nantucket,US,2019-11-11 05:05:12,41.28,-70.1,48.99,61,1,3.36,clear sky,0,0
204,Fortuna,US,2019-11-11 05:05:12,40.6,-124.16,53.01,100,90,1.97,overcast clouds,0,0
205,Bredasdorp,ZA,2019-11-11 05:05:12,-34.53,20.04,66.0,82,99,13.87,overcast clouds,0,0
206,Zhigansk,RU,2019-11-11 05:05:12,66.77,123.37,-13.24,91,54,8.32,broken clouds,0,0
207,Kachug,RU,2019-11-11 05:05:13,53.96,105.89,9.41,56,100,6.26,overcast clouds,0,0
208,Kovdor,RU,2019-11-11 05:05:13,67.56,30.47,3.76,98,90,3.04,overcast clouds,0,0
209,Bethel,US,2019-11-11 05:05:13,60.79,-161.76,41.0,80,90,10.29,light rain,0,0
210,Lugovoy,RU,2019-11-11 05:05:14,59.72,65.88,17.67,89,100,9.19,overcast clouds,0,0
211,Krasnogvardeyets,RU,2019-11-11 05:05:14,46.16,39.17,50.94,71,0,5.03,clear sky,0,0
212,Namibe,AO,2019-11-11 05:05:14,-15.19,12.15,74.75,82,0,9.6,clear sky,0,0
213,Conceicao Do Araguaia,BR,2019-11-11 05:00:21,-8.26,-49.26,73.78,91,96,1.9,overcast clouds,0,0
214,Margate,AU,2019-11-11 05:05:14,-43.03,147.26,75.99,17,100,28.86,overcast clouds,0,0
215,Isla Vista,US,2019-11-11 05:00:38,34.41,-119.86,60.01,93,1,2.57,mist,0,0
216,Saldanha,PT,2019-11-11 05:05:15,41.42,-6.55,43.9,95,100,1.5,overcast clouds,0,0
217,Mon,IN,2019-11-11 05:05:15,26.73,95.03,67.28,95,94,2.28,light rain,2.44,0
218,Beyneu,KZ,2019-11-11 05:05:15,45.32,55.19,43.61,59,0,16.89,clear sky,0,0
219,Husavik,CA,2019-11-11 05:05:16,50.56,-96.99,1.99,82,44,4.0,scattered clouds,0,0
220,Kahului,US,2019-11-11 05:05:16,20.89,-156.47,80.6,69,40,13.87,scattered clouds,0,0
221,Matagami,NG,2019-11-11 05:05:16,9.67,8.4,62.6,77,96,11.41,overcast clouds,0,0
222,Salinopolis,BR,2019-11-11 05:05:16,-0.61,-47.36,81.48,81,81,13.4,broken clouds,0,0
223,Asten,NL,2019-11-11 05:05:17,51.4,5.74,42.01,93,90,8.05,mist,0,0
224,Palmer,AU,2019-11-11 05:05:17,-34.85,139.16,91.99,7,35,25.28,scattered clouds,0,0
225,Ilulissat,GL,2019-11-11 05:05:17,69.22,-51.1,42.8,33,100,20.8,overcast clouds,0,0
226,Gazojak,TM,2019-11-11 05:05:17,41.19,61.4,46.54,36,0,14.34,clear sky,0,0
227,Cabra,ES,2019-11-11 05:05:17,37.47,-4.43,53.6,66,93,5.82,overcast clouds,0,0
228,Acapulco,MX,2019-11-11 05:02:26,16.86,-99.88,84.2,83,40,3.36,scattered clouds,0,0
229,Atikokan,CA,2019-11-11 05:05:18,48.76,-91.62,3.88,73,40,8.52,scattered clouds,0,0
230,Nijar,ES,2019-11-11 05:05:18,36.97,-2.21,59.0,33,65,19.46,broken clouds,0,0
231,Kaitangata,NZ,2019-11-11 05:05:19,-46.28,169.85,48.99,60,100,14.0,overcast clouds,0,0
232,Tuatapere,NZ,2019-11-11 05:05:19,-46.13,167.69,51.01,62,70,11.01,light rain,0.12,0
233,Ipameri,BR,2019-11-11 05:05:19,-17.72,-48.16,67.59,78,20,3.38,few clouds,0,0
234,Kaeo,NZ,2019-11-11 05:01:34,-35.1,173.78,57.99,100,100,19.55,light rain,1.94,0
235,Pandhurna,IN,2019-11-11 05:05:20,21.6,78.53,80.78,48,0,7.78,clear sky,0,0
236,Santo Domingo,DO,2019-11-11 05:04:55,18.48,-69.94,77.0,94,40,4.7,scattered clouds,0,0
237,Coahuayana,MX,2019-11-11 05:05:20,18.62,-100.35,72.45,80,14,2.19,few clouds,0,0
238,Challapata,BO,2019-11-11 05:05:20,-18.9,-66.78,48.24,77,100,17.45,light rain,1.56,0
239,Hami,CN,2019-11-11 05:05:20,42.84,93.51,48.33,29,69,9.48,broken clouds,0,0
240,Itanhaem,BR,2019-11-11 05:00:23,-24.18,-46.79,68.0,88,75,1.23,broken clouds,0,0
241,Saint Anthony,US,2019-11-11 05:05:21,43.97,-111.68,42.01,64,75,8.05,broken clouds,0,0
242,Thompson,CA,2019-11-11 05:05:21,55.74,-97.86,-22.01,74,40,2.24,scattered clouds,0,0
243,San Lorenzo,HN,2019-11-11 05:05:21,13.43,-87.45,72.57,91,88,2.55,light rain,0.19,0
244,Crestview,US,2019-11-11 05:05:22,30.76,-86.57,54.0,87,1,1.23,mist,0,0
245,Finschhafen,PG,2019-11-11 05:05:22,-6.6,147.85,80.64,80,100,15.52,moderate rain,3.69,0
246,Dese,IT,2019-11-11 05:05:22,45.53,12.3,51.01,81,40,10.29,scattered clouds,0,0
247,Aksha,RU,2019-11-11 05:05:22,50.28,113.29,21.52,25,50,13.35,scattered clouds,0,0
248,Verkhnyaya Inta,RU,2019-11-11 05:05:23,65.99,60.32,10.62,92,100,13.11,light snow,0,0.38
249,Santa Cruz,BR,2019-11-11 05:02:37,-6.22,-36.02,69.24,95,35,5.55,scattered clouds,0,0
250,Pochutla,MX,2019-11-11 05:05:23,15.74,-96.47,80.6,74,40,8.39,scattered clouds,0,0
251,Sovetskaya Gavan,RU,2019-11-11 05:05:24,48.97,140.29,41.02,63,100,12.62,overcast clouds,0,0
252,Manta,RO,2019-11-11 05:05:24,45.1,24.1,46.65,88,62,1.61,broken clouds,0,0
253,Bilibino,RU,2019-11-11 05:05:24,68.06,166.44,23.0,71,92,4.61,overcast clouds,0,0
254,Sioux Lookout,CA,2019-11-11 05:05:24,50.1,-91.92,5.0,71,90,2.24,light snow,0,0
255,Nyagan,RU,2019-11-11 05:05:25,62.14,65.43,14.7,92,100,11.77,light snow,0,1.06
256,Beringovskiy,RU,2019-11-11 05:05:25,63.05,179.32,33.58,97,100,17.27,light rain,1.81,0
257,Bonthe,SL,2019-11-11 05:05:25,7.53,-12.5,78.21,85,11,4.36,few clouds,0,0
258,Amahai,ID,2019-11-11 05:05:25,-3.31,129.0,83.23,75,75,8.97,broken clouds,0,0
259,North Branch,US,2019-11-11 05:05:26,45.51,-92.98,19.0,57,90,8.05,overcast clouds,0,0
260,Honningsvag,NO,2019-11-11 05:05:26,70.98,25.97,33.8,74,75,9.17,broken clouds,0,0
261,Tartagal,AR,2019-11-11 05:01:56,-22.52,-63.8,67.75,82,100,1.43,overcast clouds,0,0
262,Rocha,UY,2019-11-11 05:03:26,-34.48,-54.34,51.12,96,0,4.59,clear sky,0,0
263,Yangambi,CD,2019-11-11 05:05:27,0.77,24.47,74.37,94,100,1.39,light rain,0.5,0
264,Manzhouli,CN,2019-11-11 05:05:27,49.6,117.43,22.55,28,0,16.58,clear sky,0,0
265,Chumikan,RU,2019-11-11 05:05:27,54.72,135.31,24.75,71,100,6.04,overcast clouds,0,0
266,Fare,PF,2019-11-11 05:05:28,-16.7,-151.02,80.46,73,99,8.41,moderate rain,5.19,0
267,Huilong,CN,2019-11-11 05:05:28,31.15,106.5,63.81,69,87,2.91,overcast clouds,0,0
268,Lingao,CN,2019-11-11 05:05:28,19.91,109.69,76.71,69,0,19.98,clear sky,0,0
269,Hovd,NO,2019-11-11 05:05:28,63.83,10.7,25.0,67,75,10.29,broken clouds,0,0
270,Haines Junction,CA,2019-11-11 05:05:29,60.75,-137.51,2.48,50,0,1.5,clear sky,0,0
271,Rio Grande,BR,2019-11-11 05:05:29,-32.03,-52.1,66.99,86,71,5.01,broken clouds,0,0
272,Ostrovnoy,RU,2019-11-11 05:05:29,68.05,39.51,24.39,90,100,11.52,light snow,0,0.25
273,Kupang,ID,2019-11-11 05:05:30,-10.16,123.6,89.6,55,20,11.41,few clouds,0,0
274,Pangkalanbuun,ID,2019-11-11 05:05:30,-2.68,111.62,90.9,48,39,4.05,scattered clouds,0,0
275,Naze,NG,2019-11-11 05:05:30,5.43,7.07,71.6,100,75,2.55,broken clouds,0,0
276,Sohag,EG,2019-11-11 05:05:30,26.55,31.7,64.4,59,0,3.36,clear sky,0,0
277,Valparaiso,US,2019-11-11 05:05:30,41.47,-87.06,42.8,100,90,10.29,light intensity drizzle,0,0
278,Poum,MK,2019-11-11 05:05:31,41.28,20.71,41.13,75,100,2.55,overcast clouds,0,0
279,Palmeira,BR,2019-11-11 05:05:31,-25.43,-50.0,64.0,96,66,4.36,broken clouds,0,0
280,Jurm,AF,2019-11-11 05:05:31,36.86,70.83,39.24,26,0,3.58,clear sky,0,0
281,Alta Floresta,BR,2019-11-11 05:05:31,-9.87,-56.08,69.57,98,100,3.33,overcast clouds,0,0
282,Alugan,PH,2019-11-11 05:05:32,12.22,125.48,79.18,86,100,10.98,moderate rain,5.06,0
283,Leua,AO,2019-11-11 05:05:32,-11.65,20.45,67.84,89,100,6.78,overcast clouds,0,0
284,Tuy Hoa,VN,2019-11-11 05:01:21,13.08,109.3,79.3,81,47,17.07,scattered clouds,0,0
285,Orissaare,EE,2019-11-11 05:05:32,58.56,23.08,42.01,100,75,3.36,broken clouds,0,0
286,Santa Rita,BR,2019-11-11 05:05:33,-7.13,-34.98,74.97,81,34,7.94,light rain,0.12,0
287,Bani,YE,2019-11-11 05:05:33,16.02,42.93,85.03,54,0,5.32,clear sky,0,0
288,Brodick,GB,2019-11-11 05:05:33,55.58,-5.15,46.4,81,40,14.99,light rain,0,0
289,Wajir,KE,2019-11-11 05:05:33,1.75,40.07,77.0,94,75,6.93,broken clouds,0,0
290,Arraial Do Cabo,BR,2019-11-11 05:05:33,-22.97,-42.02,74.17,92,89,4.25,overcast clouds,0,0
291,Hasaki,JP,2019-11-11 05:01:37,35.73,140.83,70.0,77,20,2.24,few clouds,0,0
292,Roma,IT,2019-11-11 05:05:34,41.89,12.48,60.01,87,75,5.82,thunderstorm with light rain,0,0
293,Genhe,CN,2019-11-11 05:05:34,50.78,121.52,16.34,56,92,12.1,overcast clouds,0,0
294,Santo Antonio Do Leverger,BR,2019-11-11 05:05:34,-15.87,-56.08,75.2,83,99,4.7,light rain,0.31,0
295,Nikolskoye,RU,2019-11-11 05:05:35,59.7,30.79,44.01,93,90,4.47,overcast clouds,0,0
296,Masalli,KR,2019-11-11 05:05:35,34.8,126.66,62.6,63,75,16.11,broken clouds,0,0
297,Chimore,BO,2019-11-11 05:05:35,-16.98,-65.13,68.31,97,100,0.49,overcast clouds,0,0
298,Simao,CN,2019-11-11 05:05:35,22.76,100.79,74.32,57,55,4.21,broken clouds,0,0
299,Arona,IT,2019-11-11 05:05:36,45.76,8.56,46.99,93,75,5.82,broken clouds,0,0
300,Oussouye,SN,2019-11-11 05:05:36,12.49,-16.54,73.26,66,100,4.45,overcast clouds,0,0
301,Chicama,PE,2019-11-11 05:05:36,-7.84,-79.15,62.6,82,75,8.05,mist,0,0
302,Mao,DO,2019-11-11 05:05:36,19.55,-71.08,80.01,94,40,2.64,scattered clouds,0,0
303,Hamilton,CA,2019-11-11 05:03:10,43.26,-79.87,36.0,93,90,3.36,moderate rain,0,0
304,Pevek,RU,2019-11-11 05:05:37,69.7,170.27,14.43,66,49,0.67,scattered clouds,0,0
305,Emerald,AU,2019-11-11 05:03:14,-23.53,148.16,97.0,8,4,6.93,clear sky,0,0
306,Abu Dhabi,AE,2019-11-11 05:03:54,24.47,54.37,69.8,77,20,6.93,few clouds,0,0
307,Concordia,AR,2019-11-11 05:05:38,-31.4,-58.02,68.0,83,0,8.99,clear sky,0,0
308,Hegang,CN,2019-11-11 05:05:38,47.34,130.28,40.6,63,96,9.82,overcast clouds,0,0
309,Crotone,IT,2019-11-11 05:05:38,39.09,17.12,57.97,64,91,1.99,overcast clouds,0,0
310,Vardo,US,2019-11-11 05:05:39,39.62,-77.74,43.0,85,1,1.48,clear sky,0,0
311,Xining,CN,2019-11-11 05:05:39,36.62,101.77,46.67,21,0,2.8,clear sky,0,0
312,San Patricio,PY,2019-11-11 05:05:39,-26.98,-56.83,65.89,97,17,4.97,few clouds,0,0
313,Cabo San Lucas,MX,2019-11-11 05:05:39,22.89,-109.91,80.01,57,40,6.93,scattered clouds,0,0
314,Ust-Omchug,RU,2019-11-11 05:05:40,61.13,149.63,-11.37,99,61,3.42,broken clouds,0,0
315,Saint-Pierre,FR,2019-11-11 05:05:40,48.95,4.24,39.0,100,100,10.29,overcast clouds,0,0
316,Ayr,AU,2019-11-11 05:05:40,-19.58,147.4,86.0,46,2,1.01,clear sky,0,0
317,Kadaya,RU,2019-11-11 05:05:40,50.93,119.29,20.59,35,0,14.88,clear sky,0,0
318,Turayf,SA,2019-11-11 05:05:40,31.68,38.65,51.8,43,87,6.93,overcast clouds,0,0
319,Qasigiannguit,GL,2019-11-11 05:05:41,68.82,-51.19,42.8,33,100,20.8,overcast clouds,0,0
320,Beatrice,US,2019-11-11 05:05:41,40.27,-96.75,32.0,81,90,16.11,overcast clouds,0,0
321,Cururupu,BR,2019-11-11 05:05:41,-1.82,-44.87,72.3,99,16,1.9,few clouds,0,0
322,San Quintin,PH,2019-11-11 05:05:42,17.54,120.52,82.6,73,2,6.24,clear sky,0,0
323,Elizabeth City,US,2019-11-11 05:04:29,36.3,-76.22,52.0,86,1,4.7,clear sky,0,0
324,Chingirlau,KZ,2019-11-11 05:05:42,51.09,54.08,37.44,79,18,8.7,few clouds,0,0
325,Samarai,PG,2019-11-11 05:05:42,-10.62,150.67,78.17,73,69,8.66,broken clouds,0,0
326,Vestmanna,FO,2019-11-11 05:05:43,62.16,-7.17,39.2,75,100,25.28,light snow,0,0.25
327,Ampanihy,MG,2019-11-11 05:05:43,-24.69,44.75,79.23,55,31,8.16,scattered clouds,0,0
328,Olinda,AU,2019-11-11 05:05:43,-37.84,145.39,86.0,15,37,21.92,scattered clouds,0,0
329,Parabel,RU,2019-11-11 05:05:43,58.71,81.5,8.11,65,0,3.29,clear sky,0,0
330,Port Hardy,CA,2019-11-11 05:05:44,50.7,-127.42,48.2,93,90,9.17,overcast clouds,0,0
331,Tromso,NO,2019-11-11 05:05:35,69.65,18.96,14.0,92,0,9.17,clear sky,0,0
332,Nioro,GM,2019-11-11 05:05:44,13.79,-15.05,77.68,23,69,5.03,broken clouds,0,0
333,Smidovich,RU,2019-11-11 05:05:44,48.6,133.81,34.18,98,100,5.14,light rain,1,0
334,Khor,RU,2019-11-11 05:05:45,47.88,134.96,37.53,97,100,8.66,light rain,1.38,0
335,Eureka,US,2019-11-11 05:05:45,40.8,-124.16,51.01,93,40,3.87,mist,0,0
336,Biloela,AU,2019-11-11 05:05:45,-24.4,150.51,89.44,12,4,3.27,clear sky,0,0
337,Guerrero Negro,MX,2019-11-11 05:05:46,27.97,-114.04,63.41,90,43,9.46,scattered clouds,0,0
338,Hereford,GB,2019-11-11 05:02:24,52.06,-2.72,44.01,94,79,3.0,light rain,0.94,0
339,Kirakira,SB,2019-11-11 05:05:46,-10.46,161.92,79.2,72,44,11.03,scattered clouds,0,0
340,Petatlan,MX,2019-11-11 05:05:46,17.52,-101.27,82.63,81,73,4.38,light rain,0.19,0
341,Qaqortoq,GL,2019-11-11 05:05:46,60.72,-46.03,33.8,80,100,24.16,light snow,0,0
342,Verkhniy Baskunchak,KZ,2019-11-11 05:05:47,48.23,46.72,48.33,60,52,10.71,broken clouds,0,0
343,Neiafu,TO,2019-11-11 05:05:47,-18.65,-173.98,80.6,78,75,8.05,broken clouds,0,0
344,Kontagora,NG,2019-11-11 05:05:47,10.4,5.47,75.11,53,81,2.24,broken clouds,0,0
345,Rosario,UY,2019-11-11 05:05:47,-34.31,-57.35,59.0,89,0,1.01,clear sky,0,0
346,Omsukchan,RU,2019-11-11 05:05:48,62.53,155.8,-0.28,96,100,3.13,light snow,0,0.19
347,Banugao,PH,2019-11-11 05:05:48,14.73,121.63,87.01,70,100,1.99,light rain,1.06,0
348,Sao Joao Do Piaui,BR,2019-11-11 05:05:48,-8.36,-42.25,77.92,56,100,7.43,overcast clouds,0,0
349,Bandarbeyla,SO,2019-11-11 05:05:48,9.49,50.81,79.11,73,0,13.49,clear sky,0,0
350,Wenling,CN,2019-11-11 05:05:49,28.38,121.38,81.0,42,1,9.37,clear sky,0,0
351,Atambua,ID,2019-11-11 05:05:49,-9.11,124.89,81.57,68,2,6.11,clear sky,0,0
352,Rorvik,NO,2019-11-11 05:05:49,64.86,11.24,26.01,71,50,3.0,scattered clouds,0,0
353,Kununurra,AU,2019-11-11 05:03:04,-15.77,128.74,104.0,19,12,9.17,few clouds,0,0
354,Keetmanshoop,NA,2019-11-11 05:05:50,-26.57,18.15,60.8,51,5,4.97,clear sky,0,0
355,Te Anau,NZ,2019-11-11 05:05:50,-45.41,167.72,47.93,66,41,6.24,light rain,0.81,0
356,Chaihe,CN,2019-11-11 05:05:51,44.77,129.68,39.2,65,44,14.97,scattered clouds,0,0
357,Podosinovets,RU,2019-11-11 05:05:51,60.28,47.06,37.09,99,100,9.44,light rain,0.69,0
358,Mirpur Mathelo,PK,2019-11-11 05:05:51,28.02,69.55,84.99,14,94,0.78,overcast clouds,0,0
359,Mbengwi,CM,2019-11-11 05:05:51,6.0,10.01,64.33,88,100,1.43,overcast clouds,0,0
360,Aksarka,RU,2019-11-11 05:05:52,66.56,67.8,1.92,95,100,12.62,light snow,0,0.44
361,Ancud,CL,2019-11-11 05:05:52,-41.87,-73.83,51.8,100,60,5.82,broken clouds,0,0
362,Morden,CA,2019-11-11 05:03:11,49.19,-98.1,5.0,77,20,9.17,few clouds,0,0
363,Kiunga,PG,2019-11-11 05:05:52,-6.12,141.3,73.9,96,100,0.85,light rain,0.56,0
364,Talara,PE,2019-11-11 05:05:52,-4.58,-81.27,65.41,91,100,13.11,overcast clouds,0,0
365,Necochea,AR,2019-11-11 05:05:53,-38.55,-58.74,55.0,94,44,4.0,scattered clouds,0,0
366,Kabin Buri,TH,2019-11-11 05:05:53,13.95,101.72,80.01,26,36,7.76,scattered clouds,0,0
367,Shimorskoye,RU,2019-11-11 05:05:53,55.33,42.04,39.09,95,100,14.72,overcast clouds,0,0
368,Aklavik,CA,2019-11-11 05:05:53,68.22,-135.01,10.4,51,5,4.7,clear sky,0,0
369,Channel-Port Aux Basques,CA,2019-11-11 05:05:54,47.57,-59.14,44.49,76,95,26.64,overcast clouds,0,0
370,Dunedin,NZ,2019-11-11 05:01:13,-45.87,170.5,50.0,69,100,28.01,overcast clouds,0,0
371,Pacasmayo,PE,2019-11-11 05:05:54,-7.4,-79.57,63.66,87,48,9.69,scattered clouds,0,0
372,Namatanai,PG,2019-11-11 05:05:54,-3.66,152.44,84.4,72,66,7.9,broken clouds,0,0
373,Willmar,US,2019-11-11 05:01:25,45.12,-95.04,17.6,57,90,14.99,overcast clouds,0,0
374,Madanapalle,IN,2019-11-11 05:05:55,13.56,78.5,78.04,61,0,6.46,clear sky,0,0
375,Ketchikan,US,2019-11-11 05:05:55,55.34,-131.65,44.6,87,1,4.52,clear sky,0,0
376,Arinos,BR,2019-11-11 05:01:18,-15.92,-46.11,72.43,35,45,2.84,scattered clouds,0,0
377,Guantanamo,BO,2019-11-11 05:05:55,-16.14,-62.05,69.67,97,100,7.23,light rain,0.94,0
378,Touros,BR,2019-11-11 05:05:56,-5.2,-35.46,75.2,83,75,3.36,broken clouds,0,0
379,Ous,RU,2019-11-11 05:05:56,60.91,61.52,21.27,93,100,9.6,light snow,0,1.37
380,Salalah,OM,2019-11-11 05:05:56,17.01,54.1,77.0,65,20,3.36,few clouds,0,0
381,Sao Felix Do Xingu,BR,2019-11-11 05:05:57,-6.64,-51.99,71.35,94,98,2.26,overcast clouds,0,0
382,Kaduqli,SD,2019-11-11 05:05:57,11.01,29.72,77.36,18,0,16.02,clear sky,0,0
383,Coquimbo,CL,2019-11-11 05:05:57,-29.95,-71.34,57.2,87,90,4.7,overcast clouds,0,0
384,Trabzon,TR,2019-11-11 05:05:57,41.01,39.72,62.6,48,10,2.24,clear sky,0,0
385,Karlskrona,SE,2019-11-11 05:05:58,56.16,15.59,35.6,100,79,5.82,light rain,0.38,0
386,Dubbo,AU,2019-11-11 05:05:58,-32.25,148.6,84.2,20,2,10.29,clear sky,0,0
387,Leningradskiy,RU,2019-11-11 05:05:58,69.38,178.42,18.68,88,65,8.03,broken clouds,0,0
388,Pokhara,NP,2019-11-11 05:05:58,28.21,83.99,79.99,49,0,2.93,clear sky,0,0
389,Merauke,ID,2019-11-11 05:05:59,-8.49,140.4,84.36,71,70,9.69,light rain,1.69,0
390,Praia,BR,2019-11-11 05:05:59,-20.25,-43.81,73.4,64,16,5.82,few clouds,0,0
391,Markala,ML,2019-11-11 05:05:59,13.69,-6.07,78.85,25,72,9.13,broken clouds,0,0
392,Sola,TZ,2019-11-11 05:06:00,-3.17,33.8,75.24,59,100,8.03,overcast clouds,0,0
393,Egvekinot,RU,2019-11-11 05:06:00,66.32,-179.17,20.25,94,100,10.4,light snow,0,0.19
394,Maraa,BR,2019-11-11 05:06:00,-1.83,-65.37,73.69,96,78,1.99,broken clouds,0,0
395,Zlobin,HR,2019-11-11 05:06:01,45.29,14.65,53.01,87,83,2.86,broken clouds,0,0
396,Beihai,CN,2019-11-11 05:06:01,38.95,121.19,59.0,41,0,11.18,clear sky,0,0
397,Inhambane,MZ,2019-11-11 05:06:01,-23.87,35.38,77.0,78,40,4.7,scattered clouds,0,0
398,Keningau,MY,2019-11-11 05:06:01,5.33,116.16,91.4,66,75,4.7,broken clouds,0,0
399,Nago,IT,2019-11-11 05:06:02,45.88,10.89,48.99,81,75,4.7,light rain,0,0
400,General Roca,AR,2019-11-11 05:06:02,-39.03,-67.58,57.2,76,75,6.93,broken clouds,0,0
401,Makakilo City,US,2019-11-11 05:01:07,21.35,-158.09,82.4,88,90,2.64,overcast clouds,0,0
402,Bima,ID,2019-11-11 05:06:02,-8.45,118.73,95.58,40,43,1.23,light rain,0.5,0
403,Oranjemund,ZA,2019-11-11 05:06:03,-28.55,16.43,63.91,67,1,10.33,clear sky,0,0
404,Agua Verde,MX,2019-11-11 05:06:03,22.89,-105.97,82.99,83,40,2.24,scattered clouds,0,0
405,Alyangula,AU,2019-11-11 05:06:03,-13.85,136.42,89.6,52,89,9.17,overcast clouds,0,0
406,Altay,CN,2019-11-11 05:06:04,47.83,88.13,8.37,86,60,8.63,light snow,0,0.19
407,Shihezi,CN,2019-11-11 05:06:04,44.3,86.03,48.24,50,99,10.0,light rain,0.44,0
408,Ahipara,NZ,2019-11-11 05:06:04,-35.17,173.16,57.99,100,100,24.92,light rain,0.88,0
409,Tazovskiy,RU,2019-11-11 05:06:05,67.47,78.7,-2.1,96,28,9.06,scattered clouds,0,0
410,Djambala,CG,2019-11-11 05:06:05,-2.55,14.76,71.92,90,100,6.91,overcast clouds,0,0
411,South Lake Tahoe,US,2019-11-11 05:06:06,38.93,-119.98,53.01,30,1,4.83,clear sky,0,0
412,Alofi,NU,2019-11-11 05:06:06,-19.06,-169.92,78.8,74,91,11.41,overcast clouds,0,0
413,Ilhabela,BR,2019-11-11 05:04:28,-23.78,-45.36,74.89,86,97,2.53,light rain,0.44,0
414,Bereda,ES,2019-11-11 05:06:06,43.27,-7.54,59.0,100,75,16.11,broken clouds,0,0
415,Totness,US,2019-11-11 05:06:06,33.74,-80.8,46.0,100,20,5.12,few clouds,0,0
416,Pathein,MM,2019-11-11 05:06:07,16.78,94.73,81.57,80,18,2.21,light rain,2.5,0
417,Faanui,PF,2019-11-11 05:06:07,-16.48,-151.75,80.56,72,100,9.31,moderate rain,4.44,0
418,Smithers,CA,2019-11-11 05:06:07,54.78,-127.17,23.0,73,5,4.7,clear sky,0,0
419,Mae Sai,MM,2019-11-11 05:06:07,20.44,99.89,82.99,69,20,5.82,few clouds,0,0
420,Byron Bay,AU,2019-11-11 05:06:08,-28.65,153.62,80.6,50,2,13.87,clear sky,0,0
421,Marabba,SD,2019-11-11 05:06:08,12.35,32.18,80.55,15,0,11.36,clear sky,0,0
422,Nokaneng,BW,2019-11-11 05:06:08,-19.66,22.19,71.6,70,100,8.41,light rain,1.75,0
423,Cootamundra,AU,2019-11-11 05:06:08,-34.64,148.03,82.0,21,10,1.99,clear sky,0,0
424,Susanville,US,2019-11-11 05:06:09,40.42,-120.65,44.6,45,1,9.17,clear sky,0,0
425,Dawei,MM,2019-11-11 05:06:09,14.07,98.19,81.37,62,45,7.14,scattered clouds,0,0
426,Bobrovytsya,UA,2019-11-11 05:06:09,50.75,31.38,48.2,93,90,8.95,light rain,0,0
427,Muzhi,RU,2019-11-11 05:06:09,65.4,64.7,7.75,94,100,7.7,light snow,0,0.81
428,Dumka,IN,2019-11-11 05:02:33,24.27,87.25,82.92,56,0,8.68,clear sky,0,0
429,Sibolga,ID,2019-11-11 05:06:10,1.74,98.78,78.64,90,82,4.09,light rain,2.31,0
430,Bathsheba,BB,2019-11-11 05:06:10,13.22,-59.52,82.4,74,20,18.34,few clouds,0,0
431,Kungurtug,RU,2019-11-11 05:06:10,50.6,97.53,14.83,63,100,8.21,light snow,0,0.25
432,Colac,AU,2019-11-11 05:06:11,-38.34,143.59,82.99,53,72,8.01,broken clouds,0,0
433,Lorengau,PG,2019-11-11 05:06:11,-2.02,147.27,84.06,71,78,8.3,moderate rain,4.31,0
434,Kruisfontein,ZA,2019-11-11 05:06:11,-34.0,24.73,68.9,70,77,21.34,broken clouds,0,0
435,Awjilah,LY,2019-11-11 05:06:11,29.14,21.3,69.66,28,59,13.11,broken clouds,0,0
436,Marystown,CA,2019-11-11 05:06:12,47.17,-55.16,34.0,2,60,17.96,broken clouds,0,0
437,Anserma,CO,2019-11-11 05:06:12,5.23,-75.79,66.2,100,75,6.93,moderate rain,0,0
438,Marck,FR,2019-11-11 05:06:12,50.95,1.95,48.99,87,75,12.75,broken clouds,0,0
439,Araouane,ML,2019-11-11 05:06:12,18.9,-3.53,68.52,18,30,13.8,scattered clouds,0,0
440,Knysna,ZA,2019-11-11 05:06:12,-34.04,23.05,62.6,88,75,8.05,broken clouds,0,0
441,Lander,US,2019-11-11 05:06:13,42.83,-108.73,21.2,100,90,8.05,light rain,0,0
442,Constitucion,MX,2019-11-11 05:06:13,23.99,-104.67,61.0,62,16,10.0,few clouds,0,0
443,Cervo,BR,2019-11-11 05:06:13,-22.19,-46.24,61.75,89,64,0.16,light rain,0.44,0
444,Tiarei,PF,2019-11-11 05:06:13,-17.53,-149.33,78.8,78,40,4.7,scattered clouds,0,0
445,Arles,FR,2019-11-11 05:04:02,43.68,4.63,48.2,61,72,9.17,light rain,0.13,0
446,Nouadhibou,MR,2019-11-11 05:06:14,20.93,-17.03,69.78,50,38,18.92,scattered clouds,0,0
447,Bluefields,NI,2019-11-11 05:06:14,12.01,-83.77,72.32,99,34,2.13,light rain,0.31,0
448,Letlhakane,BW,2019-11-11 05:06:15,-21.42,25.59,77.4,60,100,11.95,overcast clouds,0,0
449,Ingham,AU,2019-11-11 05:06:15,-18.65,146.16,86.77,30,1,8.1,clear sky,0,0
450,Tigil,RU,2019-11-11 05:02:49,57.8,158.67,30.52,75,100,6.08,overcast clouds,0,0
451,Florida,UY,2019-11-11 05:06:15,-34.1,-56.21,52.86,96,0,8.23,clear sky,0,0
452,Plettenberg Bay,ZA,2019-11-11 05:06:15,-34.05,23.37,68.31,74,1,13.91,clear sky,0,0
453,Cimarron Hills,US,2019-11-11 05:06:16,38.86,-104.7,45.0,90,1,23.04,clear sky,0,0
454,Saint-Joseph,FR,2019-11-11 05:06:16,43.56,6.97,59.0,87,90,4.7,overcast clouds,0,0
455,Canutama,BR,2019-11-11 05:06:16,-6.53,-64.38,73.99,97,86,1.54,light rain,0.38,0
456,Lafiagi,NG,2019-11-11 05:06:16,8.85,5.42,76.75,81,70,0.72,broken clouds,0,0
457,Presidencia Roque Saenz Pena,AR,2019-11-11 05:06:17,-26.79,-60.44,66.45,85,5,5.82,clear sky,0,0
458,Campbell River,CA,2019-11-11 05:06:17,50.02,-125.24,44.6,93,40,4.7,mist,0,0
459,Puqi,CN,2019-11-11 05:06:18,29.72,113.88,79.18,19,39,2.98,scattered clouds,0,0
460,Pierre,US,2019-11-11 05:02:55,44.37,-100.35,17.6,92,90,14.99,light rain,0,0
461,Carutapera,BR,2019-11-11 05:06:18,-1.2,-46.02,80.87,80,13,15.17,few clouds,0,0
462,Saint Austell,GB,2019-11-11 05:06:18,50.34,-4.77,48.2,70,43,25.28,light rain,0.44,0
463,Tautira,PF,2019-11-11 05:06:19,-17.73,-149.15,78.8,78,40,4.7,scattered clouds,0,0
464,Miedzychod,PL,2019-11-11 05:06:19,52.6,15.9,39.99,100,90,3.36,fog,0,0
465,Gubkinskiy,RU,2019-11-11 05:06:19,64.43,76.5,-7.28,88,0,7.38,clear sky,0,0
466,Tabas,IR,2019-11-11 05:06:19,33.6,56.92,51.8,23,0,2.82,clear sky,0,0
467,Waingapu,ID,2019-11-11 05:06:19,-9.65,120.26,83.53,73,6,8.86,clear sky,0,0
468,Oistins,BB,2019-11-11 05:03:12,13.07,-59.53,82.4,74,20,18.34,few clouds,0,0
469,Mount Gambier,AU,2019-11-11 05:02:18,-37.83,140.78,78.8,26,93,20.8,overcast clouds,0,0
470,Cao Bang,VN,2019-11-11 05:06:20,22.67,106.25,82.56,34,25,3.31,scattered clouds,0,0
471,Devils Lake,US,2019-11-11 05:03:23,48.11,-98.87,5.0,91,1,8.05,clear sky,0,0
472,Muyinga,BI,2019-11-11 05:06:21,-2.85,30.34,69.28,83,100,1.7,light rain,0.19,0
473,Mataram,ID,2019-11-11 05:06:21,-5.32,105.06,90.52,46,43,6.64,scattered clouds,0,0
474,Portland,US,2019-11-11 05:03:02,43.66,-70.25,46.0,52,1,20.62,clear sky,0,0
475,Wamba,CD,2019-11-11 05:06:22,2.14,27.99,74.88,77,100,3.0,overcast clouds,0,0
476,Tailai,CN,2019-11-11 05:06:22,46.39,123.41,41.13,16,0,15.86,clear sky,0,0
477,Guayaramerin,BO,2019-11-11 05:06:22,-10.82,-65.36,72.81,92,93,1.48,light rain,1,0
478,Abu Kamal,SY,2019-11-11 05:06:23,34.45,40.92,68.49,23,0,3.69,clear sky,0,0
479,Kuhdasht,IR,2019-11-11 05:06:23,33.53,47.61,44.6,42,0,2.24,clear sky,0,0
480,Akhtanizovskaya,RU,2019-11-11 05:06:23,45.32,37.1,51.8,100,21,6.71,few clouds,0,0
481,Onega,RU,2019-11-11 05:06:23,63.91,38.09,31.91,91,100,10.83,overcast clouds,0,0
482,Offa,CI,2019-11-11 05:06:24,5.92,-4.35,72.99,97,35,2.84,light rain,0.81,0
483,Todos Santos,MX,2019-11-11 05:06:24,23.45,-110.23,80.01,57,40,6.93,scattered clouds,0,0
484,Sisimiut,GL,2019-11-11 05:06:24,66.94,-53.67,33.06,52,100,13.6,overcast clouds,0,0
485,Paamiut,GL,2019-11-11 05:06:25,61.99,-49.67,35.76,96,100,9.08,light snow,0,1
486,Lotofaga,WS,2019-11-11 05:06:25,-13.98,-171.86,80.64,77,0,12.3,clear sky,0,0
487,Gulu,UG,2019-11-11 05:06:25,2.77,32.3,76.73,72,0,2.35,clear sky,0,0
488,Saint-Georges,CA,2019-11-11 05:06:25,46.12,-70.67,33.01,74,100,5.01,light snow,0,0.13
489,Atar,MR,2019-11-11 05:06:26,20.52,-13.05,67.41,20,25,11.65,scattered clouds,0,0
490,Jacqueville,CI,2019-11-11 05:06:26,5.21,-4.42,77.0,88,90,5.82,thunderstorm with light rain,0,0
491,Wewak,PG,2019-11-11 05:06:26,-3.55,143.63,76.35,87,100,3.4,light rain,0.31,0
492,Tabou,CI,2019-11-11 05:06:26,4.42,-7.36,73.94,97,37,2.71,light rain,2.5,0
493,Iguape,BR,2019-11-11 05:06:27,-24.7,-47.56,70.16,99,98,1.63,light rain,0.25,0
494,Kyshtovka,RU,2019-11-11 05:06:27,56.56,76.62,14.68,66,1,5.06,clear sky,0,0
495,Terrace Bay,CA,2019-11-11 05:06:27,48.78,-87.1,3.69,82,12,2.51,few clouds,0,0
496,Muret,FR,2019-11-11 05:06:27,43.46,1.33,44.01,100,80,4.7,broken clouds,0,0
497,Borogontsy,RU,2019-11-11 05:06:28,62.67,131.17,-3.34,94,100,7.58,light snow,0,0.31
498,Portales,US,2019-11-11 05:06:28,34.19,-103.33,60.01,50,1,10.29,clear sky,0,0
499,Linfen,CN,2019-11-11 05:06:28,36.09,111.52,64.22,16,7,5.37,clear sky,0,0
500,Mudon,MM,2019-11-11 05:06:28,16.26,97.73,83.93,67,10,6.58,clear sky,0,0
501,Maceio,BR,2019-11-11 05:05:22,-9.67,-35.74,75.2,88,40,3.36,scattered clouds,0,0
502,Carballo,ES,2019-11-11 05:06:29,43.21,-8.69,59.0,100,75,16.11,moderate rain,0,0
503,Port-Gentil,GA,2019-11-11 05:06:29,-0.72,8.78,79.02,80,100,7.2,overcast clouds,0,0
504,Bayanday,RU,2019-11-11 05:06:29,53.07,105.52,12.45,53,95,7.52,overcast clouds,0,0
505,Raudeberg,NO,2019-11-11 05:06:29,61.99,5.14,30.2,68,20,9.17,few clouds,0,0
506,Bosaso,SO,2019-11-11 05:06:30,11.28,49.18,78.8,78,20,14.99,few clouds,0,0
507,Kanye,BW,2019-11-11 05:06:30,-24.98,25.34,73.4,63,47,10.16,light rain,0.19,0
508,Tahlequah,US,2019-11-11 05:06:30,35.92,-94.97,60.01,87,99,7.78,overcast clouds,0,0
509,Kuytun,RU,2019-11-11 05:06:30,54.34,101.51,10.85,60,100,9.66,overcast clouds,0,0
510,Trincomalee,LK,2019-11-11 05:06:31,8.58,81.23,92.73,41,69,3.0,broken clouds,0,0
511,Sorland,NO,2019-11-11 05:06:31,67.67,12.69,14.0,66,0,4.7,clear sky,0,0
512,Moree,AU,2019-11-11 05:06:31,-29.46,149.84,86.0,11,0,11.41,clear sky,0,0
513,Bolotnoye,RU,2019-11-11 05:06:31,55.67,84.39,14.5,71,100,7.72,overcast clouds,0,0
514,Banjar,ID,2019-11-11 05:06:32,-7.37,108.54,85.48,61,67,8.34,light rain,0.69,0
515,Mahajanga,MG,2019-11-11 05:06:32,-15.72,46.32,82.4,83,20,8.05,few clouds,0,0
516,Codrington,AU,2019-11-11 05:06:32,-28.95,153.24,84.2,42,90,16.11,overcast clouds,0,0
517,Shimanovsk,RU,2019-11-11 05:06:32,52.0,127.67,20.86,74,76,11.63,broken clouds,0,0
518,Bastia,IT,2019-11-11 05:06:33,44.6,8.98,52.0,76,75,6.93,broken clouds,0,0
519,La Romana,DO,2019-11-11 05:06:33,18.43,-68.97,75.2,94,20,4.03,few clouds,0,0
520,Dukstas,LT,2019-11-11 05:06:33,55.53,26.33,43.11,89,100,10.45,light rain,2.25,0
521,Enshi,CN,2019-11-11 05:06:33,30.29,109.48,53.49,78,100,0.27,overcast clouds,0,0
522,Gheorgheni,RO,2019-11-11 05:06:34,46.72,25.6,46.99,83,32,4.54,scattered clouds,0,0
523,Chalmette,US,2019-11-11 05:06:34,29.94,-89.96,62.6,100,1,5.82,clear sky,0,0
524,Visnes,NO,2019-11-11 05:06:34,59.36,5.22,33.01,86,98,8.05,light snow,0,0.12
525,Ugoofaaru,MV,2019-11-11 05:05:06,5.67,73.0,82.65,67,4,5.57,clear sky,0,0
526,Daru,PG,2019-11-11 05:06:35,-9.07,143.21,79.61,85,100,7.58,light rain,0.44,0
527,Houston,US,2019-11-11 05:04:14,29.76,-95.37,64.99,82,1,6.73,clear sky,0,0
528,Sabha,LY,2019-11-11 05:06:35,27.03,14.43,71.08,39,100,23.04,overcast clouds,0,0
529,Piacabucu,BR,2019-11-11 05:06:35,-10.41,-36.43,76.62,79,36,11.56,light rain,0.13,0
530,Nova Vicosa,BR,2019-11-11 05:06:36,-17.89,-39.37,73.65,87,43,8.39,scattered clouds,0,0
531,Batemans Bay,AU,2019-11-11 05:06:36,-35.71,150.18,75.0,67,30,10.0,scattered clouds,0,0
532,Rairangpur,IN,2019-11-11 05:06:36,22.27,86.18,82.4,61,0,3.36,haze,0,0
533,Tomatlan,MX,2019-11-11 05:06:36,19.93,-105.25,68.59,92,2,3.44,clear sky,0,0
534,Cherskiy,RU,2019-11-11 05:06:37,68.75,161.3,17.15,62,85,4.12,overcast clouds,0,0
535,Contamana,PE,2019-11-11 05:06:37,-7.35,-75.01,71.47,99,100,1.7,light rain,1.38,0
536,Nerchinskiy Zavod,RU,2019-11-11 05:06:37,51.31,119.61,17.29,34,0,13.62,clear sky,0,0
537,Prado,CO,2019-11-11 05:06:38,3.75,-74.93,70.11,88,100,4.56,moderate rain,3.69,0
538,Bonavista,CA,2019-11-11 05:06:38,48.65,-53.11,34.0,83,8,7.0,clear sky,0,0
539,Mocuba,MZ,2019-11-11 05:06:38,-16.84,36.99,85.46,54,50,4.54,scattered clouds,0,0
540,Chernigovka,RU,2019-11-11 05:06:38,44.34,132.57,45.18,76,100,6.46,overcast clouds,0,0
541,Marrakesh,MA,2019-11-11 05:06:39,31.63,-7.99,51.8,76,2,6.93,clear sky,0,0
542,Tsiroanomandidy,MG,2019-11-11 05:06:39,-18.77,46.05,86.43,42,4,4.14,clear sky,0,0
543,La Palma,CO,2019-11-11 05:06:39,5.36,-74.39,67.41,97,91,2.24,light rain,1.75,0
544,Sinnamary,GF,2019-11-11 05:06:40,5.38,-52.96,81.09,83,18,12.93,few clouds,0,0
545,Casma,PE,2019-11-11 05:06:40,-9.47,-78.3,62.01,93,23,7.52,few clouds,0,0
546,Rabo De Peixe,PT,2019-11-11 05:06:40,37.8,-25.58,62.01,87,20,6.93,few clouds,0,0
547,Camacha,PT,2019-11-11 05:06:41,33.08,-16.33,66.2,68,40,14.99,scattered clouds,0,0
548,Jurilovca,RO,2019-11-11 05:06:41,44.77,28.87,55.99,81,0,4.7,clear sky,0,0
549,Kamaishi,JP,2019-11-11 05:06:42,39.28,141.86,48.2,81,75,1.12,light intensity shower rain,0,0
550,Meulaboh,ID,2019-11-11 05:06:42,4.14,96.13,81.72,73,81,7.05,light rain,0.31,0
551,Paracuru,BR,2019-11-11 05:06:43,-3.41,-39.03,86.0,74,40,16.11,scattered clouds,0,0
552,Srednekolymsk,RU,2019-11-11 05:06:43,67.46,153.71,-6.02,96,41,3.42,scattered clouds,0,0
553,Vozhega,RU,2019-11-11 05:06:44,60.47,40.21,37.2,99,100,4.54,light rain,2.63,0
554,Kosh-Agach,RU,2019-11-11 05:06:45,49.99,88.66,10.62,48,87,10.07,light snow,0,0.13
555,Oriximina,BR,2019-11-11 05:06:45,-1.77,-55.87,77.67,82,45,2.62,scattered clouds,0,0
556,Zvishavane,ZW,2019-11-11 05:06:45,-20.32,30.05,79.34,51,89,8.5,light rain,0.56,0
557,Tourlaville,FR,2019-11-11 05:06:46,49.64,-1.57,48.99,93,90,13.87,light rain,0,0
558,Hukuntsi,BW,2019-11-11 05:06:46,-23.98,21.76,75.42,52,85,12.37,overcast clouds,0,0
559,Madimba,CM,2019-11-11 05:06:46,4.42,9.93,77.0,94,75,0.11,broken clouds,0,0
560,Slupsk,PL,2019-11-11 05:06:46,54.46,17.03,39.99,93,72,6.53,broken clouds,0,0
561,Mount Isa,AU,2019-11-11 05:02:34,-20.73,139.49,98.6,5,26,8.05,scattered clouds,0,0
562,Santa Maria,BR,2019-11-11 05:04:55,-16.02,-48.01,75.2,64,40,5.82,scattered clouds,0,0
